[
  {
    "id": 60,
    "name": "Универсам \"Спар №60",
    "city": "Калининград г",
    "openingTime": "08:00",
    "closingTime": "23:00",
    "lat": 54.74686,
    "lon": 20.48272,
    "address": "SPAR на Елизаветинской, 11",
    "enabled": true
  },
  {
    "id": 68,
    "name": "Универсам \"Спар №68",
    "city": "Калининград г",
    "openingTime": "08:00",
    "closingTime": "23:00",
    "lat": 54.71171,
    "lon": 20.57913,
    "address": "SPAR на Аксакова, 125",
    "enabled": true
  },
  {
    "id": 69,
    "name": "Универсам \"Спар №69",
    "city": "Калининград г",
    "openingTime": "07:00",
    "closingTime": "23:00",
    "lat": 54.67545,
    "lon": 20.62354,
    "address": "SPAR на Емельянова, 285",
    "enabled": true
  },
  {
    "id": 61,
    "name": "Универсам \"Спар №61",
    "city": "Калининград г",
    "openingTime": "08:00",
    "closingTime": "23:00",
    "lat": 54.73205,
    "lon": 20.51232,
    "address": "SPAR на Горького, 96",
    "enabled": true
  },
  {
    "id": 70,
    "name": "Универсам \"Спар №70",
    "city": "Калининград г",
    "openingTime": "08:00",
    "closingTime": "23:00",
    "lat": 54.71973,
    "lon": 20.4849,
    "address": "SPAR Gourmet на Мира, 31",
    "enabled": true
  },
  {
    "id": 71,
    "name": "Универсам \"Спар №71\"",
    "city": "Калининград г",
    "openingTime": "08:00",
    "closingTime": "23:00",
    "lat": 54.74186,
    "lon": 20.53188,
    "address": "SPAR на Невского, 137б",
    "enabled": true
  },
  {
    "id": 72,
    "name": "Универсам \"Спар №72\"",
    "city": "Светлый г",
    "openingTime": "08:00",
    "closingTime": "23:00",
    "lat": 54.67566,
    "lon": 20.13417,
    "address": "SPAR на Советской, 4",
    "enabled": true
  },
  {
    "id": 73,
    "name": "Универсам \"Спар №73\"",
    "city": "Зеленоградск",
    "openingTime": "08:00",
    "closingTime": "23:00",
    "lat": 54.95471,
    "lon": 20.48353,
    "address": "SPAR на Окружной, 15",
    "enabled": true
  },
  {
    "id": 78,
    "name": "Универсам \"Спар №78\"",
    "city": "Калининград г",
    "openingTime": "07:00",
    "closingTime": "23:00",
    "lat": 54.71649,
    "lon": 20.5003,
    "address": "EUROSPAR на Театральной, 21",
    "enabled": true
  },
  {
    "id": 101,
    "name": "Универсам \"Спар №101",
    "city": "Калининград г",
    "openingTime": "08:00",
    "closingTime": "23:00",
    "lat": 54.70922,
    "lon": 20.503782,
    "address": "SPAR на Московском, 48а",
    "enabled": true
  },
  {
    "id": 8,
    "name": "Универсам \"Народный Магазин №08\"Спар",
    "city": "Калининград г",
    "openingTime": "08:00",
    "closingTime": "23:00",
    "lat": 54.67526,
    "lon": 20.51033,
    "address": "«Победа» на Батальной, 75а",
    "enabled": true
  },
  {
    "id": 99,
    "name": "Универсам \"Спар №99\"",
    "city": "Калининград г",
    "openingTime": "08:00",
    "closingTime": "23:00",
    "lat": 54.74151,
    "lon": 20.580748,
    "address": "SPAR на Шатурской, 5",
    "enabled": true
  },
  {
    "id": 102,
    "name": "Универсам \"Спар №102",
    "city": "Светлогорск г",
    "openingTime": "08:00",
    "closingTime": "23:00",
    "lat": 54.94464,
    "lon": 20.155361,
    "address": "SPAR на Ленина, 15",
    "enabled": true
  },
  {
    "id": 41,
    "name": "Универсам \"Спар №41",
    "city": "Калининград г",
    "openingTime": "07:00",
    "closingTime": "23:00",
    "lat": 54.68119,
    "lon": 20.46822,
    "address": "SPAR на Киевской, 119б",
    "enabled": true
  },
  {
    "id": 110,
    "name": "Универсам \"Спар №110",
    "city": "Светлогорск г",
    "openingTime": "07:00",
    "closingTime": "23:00",
    "lat": 54.94191,
    "lon": 20.1369,
    "address": "SPAR Express на Ленина, 52",
    "enabled": true
  },
  {
    "id": 21,
    "name": "Универсам \"Спар №21",
    "city": "Калининград г",
    "openingTime": "08:00",
    "closingTime": "23:00",
    "lat": 54.69361,
    "lon": 20.47263,
    "address": "SPAR на Суворова, 40",
    "enabled": true
  },
  {
    "id": 15,
    "name": "Универсам \"Народный Магазин №15\"Спар",
    "city": "Калининград г",
    "openingTime": "08:00",
    "closingTime": "23:00",
    "lat": 54.72045,
    "lon": 20.51645,
    "address": "SPAR Express на Черняховского, 76-76б",
    "enabled": true
  },
  {
    "id": 906,
    "name": "Универсам \"Спар №84\"",
    "city": "Черняховск",
    "openingTime": "08:00",
    "closingTime": "23:00",
    "lat": 0.0,
    "lon": 0.0,
    "address": "INTERSPAR на Калининградской, 2",
    "enabled": true
  },
  {
    "id": 89,
    "name": "Универсам \"Спар №89\"",
    "city": "Зеленоградск г",
    "openingTime": "08:00",
    "closingTime": "23:00",
    "lat": 54.95877,
    "lon": 20.47409,
    "address": "SPAR на Тургенева, 4",
    "enabled": true
  },
  {
    "id": 90,
    "name": "Универсам \"Спар №90\"",
    "city": "Гурьевск г",
    "openingTime": "07:00",
    "closingTime": "23:00",
    "lat": 54.76207,
    "lon": 20.60596,
    "address": "EUROSPAR на Пражском бульваре, 1б",
    "enabled": true
  },
  {
    "id": 7,
    "name": "Универсам \"Спар №07",
    "city": "Калининград г",
    "openingTime": "08:00",
    "closingTime": "23:00",
    "lat": 54.70778,
    "lon": 20.52791,
    "address": "SPAR на Трибуца, 53",
    "enabled": true
  },
  {
    "id": 92,
    "name": "Универсам \"Спар №92",
    "city": "Калининград г",
    "openingTime": "07:00",
    "closingTime": "23:59",
    "lat": 54.7476,
    "lon": 20.49935,
    "address": "INTERSPAR на Панина, 2а",
    "enabled": true
  },
  {
    "id": 113,
    "name": "Универсам \"Народный Магазин №113\"Спар",
    "city": "НЕМАН",
    "openingTime": "08:00",
    "closingTime": "22:00",
    "lat": 55.037345,
    "lon": 22.030742,
    "address": "«Победа» на Красноармейской, 1а",
    "enabled": true
  },
  {
    "id": 112,
    "name": "Универсам \"Спар №112",
    "city": "Калининград г",
    "openingTime": "08:00",
    "closingTime": "23:00",
    "lat": 54.730713,
    "lon": 20.554496,
    "address": "SPAR на Аэропортной, 12",
    "enabled": true
  },
  {
    "id": 80,
    "name": "Универсам \"Спар №80",
    "city": "Калининград г",
    "openingTime": "08:00",
    "closingTime": "23:00",
    "lat": 54.66891,
    "lon": 20.51027,
    "address": "EUROSPAR на Интернациональной, 76",
    "enabled": true
  },
  {
    "id": 122,
    "name": "Универсам \"Спар №122",
    "city": "Калининград г",
    "openingTime": "08:00",
    "closingTime": "23:00",
    "lat": 54.67781,
    "lon": 20.50605,
    "address": "SPAR на Батальной, 95",
    "enabled": true
  },
  {
    "id": 124,
    "name": "Универсам \"Спар №124",
    "city": "Калининград г",
    "openingTime": "08:00",
    "closingTime": "23:00",
    "lat": 54.68995433281363,
    "lon": 20.532299428835653,
    "address": "SPAR на Дзержинского, 61б",
    "enabled": true
  },
  {
    "id": 125,
    "name": "Универсам \"Спар №125",
    "city": "Калининград г",
    "openingTime": "08:00",
    "closingTime": "23:00",
    "lat": 54.66259,
    "lon": 20.50011,
    "address": "SPAR на Понартской, 3",
    "enabled": true
  },
  {
    "id": 50,
    "name": "Универсам \"Спар №50",
    "city": "Балтийск г",
    "openingTime": "07:00",
    "closingTime": "23:00",
    "lat": 54.6598,
    "lon": 19.9105114999999,
    "address": "SPAR на Егорова, 10",
    "enabled": true
  },
  {
    "id": 45,
    "name": "Универсам \"Спар №45",
    "city": "Гурьевск г",
    "openingTime": "08:00",
    "closingTime": "23:00",
    "lat": 54.77771,
    "lon": 20.59614,
    "address": "SPAR на Крайней, 1в",
    "enabled": true
  },
  {
    "id": 46,
    "name": "Универсам \"Спар №46",
    "city": "Калининград г",
    "openingTime": "08:00",
    "closingTime": "23:00",
    "lat": 54.71836,
    "lon": 20.47356,
    "address": "SPAR на Пушкина, 1-7",
    "enabled": true
  },
  {
    "id": 44,
    "name": "Универсам \"Спар №44",
    "city": "Калининград г",
    "openingTime": "07:00",
    "closingTime": "23:00",
    "lat": 54.67415,
    "lon": 20.54178,
    "address": "SPAR на Дзержинского, 160а",
    "enabled": true
  },
  {
    "id": 127,
    "name": "Универсам \"Спар №127",
    "city": "Калининград г",
    "openingTime": "08:00",
    "closingTime": "22:00",
    "lat": 54.75063,
    "lon": 20.53142,
    "address": "SPAR на Герцена, 50",
    "enabled": true
  },
  {
    "id": 5,
    "name": "Универсам \"Народный Магазин №05\"Спар",
    "city": "г. Калининград",
    "openingTime": "00:01",
    "closingTime": "23:59",
    "lat": 54.71686,
    "lon": 20.51156,
    "address": "SPAR на Пролетарской, 55-61а",
    "enabled": true
  },
  {
    "id": 56,
    "name": "Универсам \"Спар №56",
    "city": "Калининград г",
    "openingTime": "08:00",
    "closingTime": "23:00",
    "lat": 54.71702,
    "lon": 20.54037,
    "address": "SPAR на Гагарина, 13",
    "enabled": true
  },
  {
    "id": 57,
    "name": "Универсам \"Спар №57",
    "city": "Калининград г",
    "openingTime": "08:00",
    "closingTime": "23:00",
    "lat": 54.70942,
    "lon": 20.49461,
    "address": "SPAR на Буткова, 16",
    "enabled": true
  },
  {
    "id": 48,
    "name": "Универсам \"Спар №48",
    "city": "Калининград г",
    "openingTime": "07:00",
    "closingTime": "23:00",
    "lat": 54.70875,
    "lon": 20.57334,
    "address": "SPAR на Московском, 231",
    "enabled": true
  },
  {
    "id": 93,
    "name": "Универсам \"Спар №93",
    "city": "Калининград г",
    "openingTime": "08:00",
    "closingTime": "23:00",
    "lat": 54.72056,
    "lon": 20.52586,
    "address": "EUROSPAR на Литовском валу, 2",
    "enabled": true
  },
  {
    "id": 95,
    "name": "Универсам \"Спар №95",
    "city": "Калининград г",
    "openingTime": "08:00",
    "closingTime": "23:00",
    "lat": 54.67453,
    "lon": 20.5736,
    "address": "SPAR на Левитана, 22",
    "enabled": true
  },
  {
    "id": 96,
    "name": "Универсам \"Спар №96",
    "city": "Калининград г",
    "openingTime": "07:00",
    "closingTime": "23:00",
    "lat": 54.70927,
    "lon": 20.54266,
    "address": "SPAR на Московском, 174",
    "enabled": true
  },
  {
    "id": 97,
    "name": "Универсам \"Спар №97\"",
    "city": "Зеленоградск г",
    "openingTime": "08:00",
    "closingTime": "23:00",
    "lat": 54.95428,
    "lon": 20.47129,
    "address": "EUROSPAR на Железнодорожной, 40",
    "enabled": true
  },
  {
    "id": 94,
    "name": "Универсам \"Спар №94\"",
    "city": "Светлогорск г",
    "openingTime": "08:00",
    "closingTime": "23:00",
    "lat": 54.92678,
    "lon": 20.17268,
    "address": "SPAR на Калининградском 2а",
    "enabled": true
  },
  {
    "id": 98,
    "name": "Универсам \"Спар №98\"",
    "city": "Калининград г",
    "openingTime": "08:00",
    "closingTime": "23:00",
    "lat": 54.67846,
    "lon": 20.49215,
    "address": "SPAR на Генерала Толстикова, 2",
    "enabled": true
  },
  {
    "id": 23,
    "name": "Универсам \"Народный Магазин №23\"Спар",
    "city": "Светлогорск г",
    "openingTime": "08:00",
    "closingTime": "23:00",
    "lat": 54.92796,
    "lon": 20.15849,
    "address": "\"Семья\" на Пионерской, 26",
    "enabled": true
  },
  {
    "id": 40,
    "name": "Универсам \"Спар №40",
    "city": "Калининград г",
    "openingTime": "07:00",
    "closingTime": "23:00",
    "lat": 54.7319,
    "lon": 20.55071,
    "address": "SPAR на Липовой аллее, 2",
    "enabled": true
  },
  {
    "id": 6,
    "name": "Универсам \"Спар №06",
    "city": "Калининград г",
    "openingTime": "08:00",
    "closingTime": "23:00",
    "lat": 54.72483,
    "lon": 20.46618,
    "address": "SPAR на Карла Маркса, 100-118в",
    "enabled": true
  },
  {
    "id": 34,
    "name": "Универсам \"Спар №34",
    "city": "Калининград г",
    "openingTime": "08:00",
    "closingTime": "23:00",
    "lat": 54.71474,
    "lon": 20.45833,
    "address": "SPAR на Победы, 40",
    "enabled": true
  },
  {
    "id": 12,
    "name": "Универсам \"Спар №12",
    "city": "Калининград г",
    "openingTime": "07:00",
    "closingTime": "23:00",
    "lat": 54.72644,
    "lon": 20.52784,
    "address": "SPAR на Невского, 24-30",
    "enabled": true
  },
  {
    "id": 36,
    "name": "Универсам \"Спар №36",
    "city": "Калининград г",
    "openingTime": "08:00",
    "closingTime": "23:00",
    "lat": 54.73578,
    "lon": 20.46315,
    "address": "SPAR на Каштановой аллее, 157",
    "enabled": true
  },
  {
    "id": 39,
    "name": "Универсам \"Спар №39",
    "city": "Калининград г",
    "openingTime": "08:00",
    "closingTime": "23:00",
    "lat": 54.76982,
    "lon": 20.44854,
    "address": "SPAR на Беланова, 85а",
    "enabled": true
  },
  {
    "id": 121,
    "name": "Универсам \"Спар №121",
    "city": "Калининград г",
    "openingTime": "07:00",
    "closingTime": "23:00",
    "lat": 54.70788,
    "lon": 20.58881,
    "address": "SPAR на Крымской, 8",
    "enabled": true
  },
  {
    "id": 38,
    "name": "Универсам \"Народный Магазин №38\"Спар",
    "city": "Калининград г",
    "openingTime": "07:00",
    "closingTime": "23:59",
    "lat": 54.67447321739932,
    "lon": 20.49025434516086,
    "address": "SPAR на Автомобильной, 22",
    "enabled": true
  },
  {
    "id": 24,
    "name": "Универсам \"Семья №24",
    "city": "Янтарный пгт",
    "openingTime": "08:00",
    "closingTime": "23:00",
    "lat": 54.85569,
    "lon": 19.94505,
    "address": "\"Семья\" на Советской, 102",
    "enabled": true
  },
  {
    "id": 120,
    "name": "Универсам \"Народный Магазин №120",
    "city": "Гусев",
    "openingTime": "08:00",
    "closingTime": "22:00",
    "lat": 54.59664,
    "lon": 22.20575,
    "address": "«Победа» на Московской, 33а",
    "enabled": true
  },
  {
    "id": 3,
    "name": "Универсам \"Народный Магазин №03",
    "city": "Калининград",
    "openingTime": "08:00",
    "closingTime": "22:00",
    "lat": 54.71192,
    "lon": 20.50385,
    "address": "«Победа» на Больничной, 21-25",
    "enabled": true
  },
  {
    "id": 115,
    "name": "Универсам \"Спар №115",
    "city": "Калининград г",
    "openingTime": "08:00",
    "closingTime": "22:00",
    "lat": 54.70233,
    "lon": 20.51311,
    "address": "SPAR на Эпроновской, 21а",
    "enabled": true
  },
  {
    "id": 116,
    "name": "Универсам \"Спар №116",
    "city": "Калининград г",
    "openingTime": "08:00",
    "closingTime": "23:00",
    "lat": 54.687068,
    "lon": 20.5242,
    "address": "SPAR на Аллее смелых, 39",
    "enabled": true
  },
  {
    "id": 114,
    "name": "Универсам \"Спар №114",
    "city": "Калининград г",
    "openingTime": "08:00",
    "closingTime": "23:00",
    "lat": 54.72265,
    "lon": 20.46452,
    "address": "SPAR на Каштановой аллее, 97",
    "enabled": true
  },
  {
    "id": 119,
    "name": "Универсам \"Спар №119",
    "city": "Калининград г",
    "openingTime": "08:00",
    "closingTime": "23:00",
    "lat": 54.72855,
    "lon": 20.48157,
    "address": "SPAR на Леонова, 48",
    "enabled": true
  },
  {
    "id": 118,
    "name": "Универсам \"Народный Магазин №118\"Спар",
    "city": "Калининград г",
    "openingTime": "08:00",
    "closingTime": "22:00",
    "lat": 54.67517,
    "lon": 20.47739,
    "address": "«Победа» на Павлика Морозова, 113а",
    "enabled": true
  },
  {
    "id": 117,
    "name": "Универсам \"Спар №117",
    "city": "Калининград г",
    "openingTime": "08:00",
    "closingTime": "23:00",
    "lat": 54.67467,
    "lon": 20.50775,
    "address": "SPAR на Батальной, 104",
    "enabled": true
  },
  {
    "id": 19,
    "name": "Универсам \"Семья №19",
    "city": "Гусев г",
    "openingTime": "08:00",
    "closingTime": "23:00",
    "lat": 54.58923,
    "lon": 22.19902,
    "address": "\"Семья\" на Победы, 7а",
    "enabled": true
  },
  {
    "id": 58,
    "name": "Универсам \"Спар №58",
    "city": "Калининград г",
    "openingTime": "08:00",
    "closingTime": "23:00",
    "lat": 54.74227,
    "lon": 20.49932,
    "address": "EUROSPAR на Нарвской, 112",
    "enabled": true
  },
  {
    "id": 62,
    "name": "Универсам \"Спар №62",
    "city": "Калининград г",
    "openingTime": "08:00",
    "closingTime": "22:00",
    "lat": 54.70897,
    "lon": 20.57856,
    "address": "SPAR на Краснопрудной, 65",
    "enabled": true
  },
  {
    "id": 49,
    "name": "Универсам \"Спар №49",
    "city": "Калининград г",
    "openingTime": "07:00",
    "closingTime": "23:00",
    "lat": 54.74923,
    "lon": 20.45851,
    "address": "EUROSPAR на Советском, 234",
    "enabled": true
  },
  {
    "id": 59,
    "name": "Универсам Не использовать \"Спар №59",
    "city": "Светлый г",
    "openingTime": "08:00",
    "closingTime": "22:00",
    "lat": 54.67643,
    "lon": 20.13653,
    "address": "SPAR на Горького, 13в",
    "enabled": true
  },
  {
    "id": 63,
    "name": "Универсам \"Спар №63",
    "city": "Калининград г",
    "openingTime": "08:00",
    "closingTime": "23:00",
    "lat": 54.72981,
    "lon": 20.5425,
    "address": "SPAR на Дадаева, 63",
    "enabled": true
  },
  {
    "id": 4,
    "name": "Универсам \"Народный Магазин №04",
    "city": "Калининград г",
    "openingTime": "09:00",
    "closingTime": "22:00",
    "lat": 54.68422,
    "lon": 20.52439,
    "address": "«Победа» на Зои Космодемьянской, 2-8",
    "enabled": true
  },
  {
    "id": 13,
    "name": "Универсам \"Народный Магазин №13\"Спар",
    "city": "Зеленоградск г",
    "openingTime": "08:00",
    "closingTime": "22:00",
    "lat": 54.95674,
    "lon": 20.49247,
    "address": "«Победа» на Лесопарковой, 5а",
    "enabled": true
  },
  {
    "id": 25,
    "name": "Универсам \"Народный Магазин №25\"Спар",
    "city": "Черняховск г",
    "openingTime": "08:00",
    "closingTime": "22:00",
    "lat": 54.63148,
    "lon": 21.82147,
    "address": "«Победа» на Пушкина, 3а",
    "enabled": true
  },
  {
    "id": 126,
    "name": "Универсам \"Спар №126",
    "city": "Калининград г",
    "openingTime": "08:00",
    "closingTime": "23:00",
    "lat": 54.73668,
    "lon": 20.55752,
    "address": "SPAR на Орудийной, 24",
    "enabled": true
  },
  {
    "id": 54,
    "name": "Универсам \"Спар №54",
    "city": "Черняховск г",
    "openingTime": "08:00",
    "closingTime": "23:00",
    "lat": 54.63584,
    "lon": 21.80632,
    "address": "SPAR на Калининградской, 5",
    "enabled": true
  },
  {
    "id": 51,
    "name": "Универсам \"Спар №51",
    "city": "Калининград г",
    "openingTime": "08:00",
    "closingTime": "23:00",
    "lat": 54.73552,
    "lon": 20.5056,
    "address": "SPAR на Сибирякова, 13",
    "enabled": true
  },
  {
    "id": 42,
    "name": "Универсам \"Спар №42",
    "city": "Калининград г",
    "openingTime": "08:00",
    "closingTime": "23:00",
    "lat": 54.72764,
    "lon": 20.35309,
    "address": "SPAR на Алданской, 4б",
    "enabled": true
  },
  {
    "id": 128,
    "name": "Универсам \"Спар №128",
    "city": "Калининград",
    "openingTime": "08:00",
    "closingTime": "22:00",
    "lat": 54.729,
    "lon": 20.475,
    "address": "SPAR на Туркменской, 1",
    "enabled": true
  },
  {
    "id": 64,
    "name": "Универсам \"Спар №64",
    "city": "Калининград г",
    "openingTime": "00:00",
    "closingTime": "23:59",
    "lat": 54.66892,
    "lon": 20.51272,
    "address": "EUROSPAR на Кошевого, 37а",
    "enabled": true
  },
  {
    "id": 65,
    "name": "Универсам \"Спар №65",
    "city": "Калининград г",
    "openingTime": "08:00",
    "closingTime": "23:00",
    "lat": 54.72036,
    "lon": 20.44275,
    "address": "EUROSPAR на Красносельской, 85а",
    "enabled": true
  },
  {
    "id": 66,
    "name": "Универсам \"Спар №66",
    "city": "Калининград г",
    "openingTime": "08:00",
    "closingTime": "23:00",
    "lat": 54.67271,
    "lon": 20.48062,
    "address": "SPAR на Печатной, 21б",
    "enabled": true
  },
  {
    "id": 67,
    "name": "Универсам \"Спар №67",
    "city": "Калининград г",
    "openingTime": "08:00",
    "closingTime": "23:00",
    "lat": 54.74782,
    "lon": 20.52921,
    "address": "SPAR на Гакуна, 5а",
    "enabled": true
  },
  {
    "id": 20,
    "name": "Универсам \"Спар №20",
    "city": "Пионерский г",
    "openingTime": "08:00",
    "closingTime": "23:00",
    "lat": 54.95005,
    "lon": 20.22572,
    "address": "SPAR на Садовой, 3",
    "enabled": true
  },
  {
    "id": 75,
    "name": "Универсам \"Спар №75\"",
    "city": "Советск г",
    "openingTime": "08:00",
    "closingTime": "23:00",
    "lat": 55.08515,
    "lon": 21.89202,
    "address": "EUROSPAR на Гагарина, 14",
    "enabled": true
  },
  {
    "id": 76,
    "name": "Универсам \"Спар №76\"",
    "city": "Калининград г",
    "openingTime": "08:00",
    "closingTime": "23:59",
    "lat": 54.72868,
    "lon": 20.48076,
    "address": "EUROSPAR на К.Маркса, 18",
    "enabled": true
  },
  {
    "id": 74,
    "name": "Универсам \"Спар №74\"",
    "city": "Калининград г",
    "openingTime": "08:00",
    "closingTime": "23:00",
    "lat": 54.74144,
    "lon": 20.48712,
    "address": "EUROSPAR на Челнокова, 11",
    "enabled": true
  },
  {
    "id": 85,
    "name": "Универсам \"Семья №85\"",
    "city": "Гусев г",
    "openingTime": "07:00",
    "closingTime": "23:00",
    "lat": 54.59264,
    "lon": 22.20021,
    "address": "\"Семья\" на Ленина, 21а",
    "enabled": true
  },
  {
    "id": 81,
    "name": "Универсам \"Спар №81\"",
    "city": "Калининград г",
    "openingTime": "07:00",
    "closingTime": "23:00",
    "lat": 54.73174,
    "lon": 20.49788,
    "address": "SPAR на Нарвской, 46",
    "enabled": true
  },
  {
    "id": 82,
    "name": "Универсам \"Спар №82\"",
    "city": "Калининград г",
    "openingTime": "08:00",
    "closingTime": "23:00",
    "lat": 54.7101,
    "lon": 20.5325,
    "address": "SPAR на Московском, 135-141",
    "enabled": true
  },
  {
    "id": 88,
    "name": "Универсам \"Народный Магазин №88\"Спар",
    "city": "Правдинск г",
    "openingTime": "08:00",
    "closingTime": "22:00",
    "lat": 54.44646,
    "lon": 21.01983,
    "address": "\"Семья\" на 50 лет Победы, 2",
    "enabled": true
  },
  {
    "id": 17,
    "name": "Универсам \"Народный Магазин №17",
    "city": "Калининград г",
    "openingTime": "08:00",
    "closingTime": "22:00",
    "lat": 54.72703,
    "lon": 20.556,
    "address": "“Победа» на Гагарина, 76а",
    "enabled": true
  },
  {
    "id": 30,
    "name": "Универсам \"Народный Магазин №30",
    "city": "Калининград г",
    "openingTime": "08:00",
    "closingTime": "22:00",
    "lat": 54.73539,
    "lon": 20.48074,
    "address": "«Победа» на Космонавта Леонова, 87-89",
    "enabled": true
  },
  {
    "id": 105,
    "name": "Универсам \"Народный Магазин №105",
    "city": "Калининград г",
    "openingTime": "09:00",
    "closingTime": "22:00",
    "lat": 54.7185,
    "lon": 20.372554,
    "address": "«Победа» на Карташёва, 28а",
    "enabled": true
  },
  {
    "id": 100,
    "name": "Универсам \"Спар №100",
    "city": "Калининград г",
    "openingTime": "09:00",
    "closingTime": "22:00",
    "lat": 54.77218,
    "lon": 20.549706,
    "address": "INTERSPAR на Приморском кольце, 2",
    "enabled": true
  },
  {
    "id": 104,
    "name": "Универсам \"Народный Магазин №104\"Спар",
    "city": "Балтийск г",
    "openingTime": "08:00",
    "closingTime": "22:00",
    "lat": 54.6444,
    "lon": 19.896815,
    "address": "«Победа» на Ленина, 60",
    "enabled": true
  },
  {
    "id": 31,
    "name": "Универсам \"Народный Магазин №31\"Спар",
    "city": "Светлый г",
    "openingTime": "08:00",
    "closingTime": "22:00",
    "lat": 54.67076,
    "lon": 20.1294,
    "address": "«Победа» на Советской, 25",
    "enabled": true
  },
  {
    "id": 107,
    "name": "Универсам \"Спар №107",
    "city": "Калининград г",
    "openingTime": "07:00",
    "closingTime": "23:00",
    "lat": 54.72222,
    "lon": 20.499085,
    "address": "EUROSPAR на Советском проспекте, 8",
    "enabled": true
  },
  {
    "id": 109,
    "name": "Универсам \"Народный Магазин №109\"Спар",
    "city": "Советск г",
    "openingTime": "08:00",
    "closingTime": "22:00",
    "lat": 54.5935,
    "lon": 22.196926,
    "address": "«Победа» на Калининградском шоссе, 1",
    "enabled": true
  },
  {
    "id": 2,
    "name": "Универсам \"Народный Магазин №02",
    "city": "Калининград г",
    "openingTime": "09:00",
    "closingTime": "22:00",
    "lat": 54.72534,
    "lon": 20.54363,
    "address": "«Победа» на Куйбышева, 181-187",
    "enabled": true
  },
  {
    "id": 28,
    "name": "Универсам \"Народный Магазин №28",
    "city": "Калининград г",
    "openingTime": "08:00",
    "closingTime": "22:00",
    "lat": 54.7322,
    "lon": 20.54594,
    "address": "\"Победа\" на Артиллерийской, 23а",
    "enabled": true
  },
  {
    "id": 106,
    "name": "Универсам \"Народный Магазин №106",
    "city": "Гусев г",
    "openingTime": "09:00",
    "closingTime": "22:00",
    "lat": 54.5935,
    "lon": 22.196926,
    "address": "«Победа» на Ленина, 11",
    "enabled": true
  },
  {
    "id": 29,
    "name": "Универсам \"Народный Магазин №29",
    "city": "Калининград г",
    "openingTime": "08:00",
    "closingTime": "23:00",
    "lat": 54.69053,
    "lon": 20.52985,
    "address": "«Победа» на Дзержинского, 74а",
    "enabled": true
  },
  {
    "id": 22,
    "name": "Универсам \"Народный Магазин №22\"Спар",
    "city": "Калининград г",
    "openingTime": "08:00",
    "closingTime": "23:00",
    "lat": 54.72612,
    "lon": 20.49704,
    "address": "«Победа» на Генерал-лейтенанта Озерова, 7-13",
    "enabled": true
  },
  {
    "id": 27,
    "name": "Универсам \"Народный Магазин №27",
    "city": "Мамоново г",
    "openingTime": "09:00",
    "closingTime": "22:00",
    "lat": 54.4618,
    "lon": 19.94153,
    "address": "«Победа» на Парковой, 4",
    "enabled": true
  },
  {
    "id": 37,
    "name": "Универсам \"Спар №37",
    "city": "Калининград г",
    "openingTime": "08:00",
    "closingTime": "23:00",
    "lat": 54.74933,
    "lon": 20.50146,
    "address": "SPAR на Горького, 170",
    "enabled": true
  },
  {
    "id": 47,
    "name": "Универсам \"Спар №47",
    "city": "Калининград г",
    "openingTime": "08:00",
    "closingTime": "23:00",
    "lat": 54.67758,
    "lon": 20.47587,
    "address": "SPAR на Минусинской, 16",
    "enabled": true
  },
  {
    "id": 52,
    "name": "Универсам \"Спар №52",
    "city": "Калининград г",
    "openingTime": "08:00",
    "closingTime": "23:00",
    "lat": 54.70255,
    "lon": 20.50579,
    "address": "SPAR на Краснооктябрьской, 1-7",
    "enabled": true
  },
  {
    "id": 53,
    "name": "Универсам \"Спар №53",
    "city": "Калининград г",
    "openingTime": "07:00",
    "closingTime": "23:00",
    "lat": 54.71524,
    "lon": 20.37265,
    "address": "SPAR на Балтийском шоссе, 114",
    "enabled": true
  },
  {
    "id": 18,
    "name": "Универсам \"Спар №18",
    "city": "Балтийск г",
    "openingTime": "08:00",
    "closingTime": "23:00",
    "lat": 54.66068,
    "lon": 19.91102,
    "address": "SPAR на Егорова, 12",
    "enabled": true
  },
  {
    "id": 43,
    "name": "Универсам \"Народный Магазин №43\"Спар",
    "city": "Светлый",
    "openingTime": "08:00",
    "closingTime": "23:00",
    "lat": 54.68128,
    "lon": 20.1408,
    "address": "\"Семья\" на Гагарина, 2а",
    "enabled": true
  },
  {
    "id": 10,
    "name": "Универсам \"Народный Магазин №10\"Спар",
    "city": "Калининград г",
    "openingTime": "08:00",
    "closingTime": "23:00",
    "lat": 54.699,
    "lon": 20.50574,
    "address": "\"Семья\" на Багратиона, 87-91",
    "enabled": true
  },
  {
    "id": 11,
    "name": "Универсам \"Народный Магазин №11\"Спар",
    "city": "Калининград г",
    "openingTime": "08:00",
    "closingTime": "23:00",
    "lat": 54.7255,
    "lon": 20.50987,
    "address": "\"Семья\" на Горького, 16-22",
    "enabled": true
  }
]